{
  "source": "contents-031",
  "problemCategory": "就活・キャリア",
  "problemDescription": "学生が職種選びで残業の多い・少ない職種について知りたい、就活をいつから始めればよいか分からない",
  "postType": "003",
  "postTypeReason": "残業時間の職種別ランキング情報と就活開始時期の情報を提供している",
  "solutionContent": {
    "概要": "残業の多い職種と少ない職種をランキング形式で情報提供し、就活は早めに始めるべきことを説明",
    "具体的手順": [],
    "提供情報": [
      "残業多い職種TOP20（インフラコンサルタント39.4h/月等）",
      "残業少ない職種TOP20（医療事務10.3h/月等）",
      "月残業時間による生活への影響の段階的説明",
      "就活は先手必勝で早めのスタートが重要"
    ],
    "実用的なアドバイス": [
      "就活は1日でも早くスタートした人が勝つゲーム",
      "残業時間帯別の生活への影響を理解して職種選択",
      "無料の就活攻略情報の活用"
    ]
  },
  "effectiveExpressions": [
    "ランキング表形式での情報整理",
    "段階的な色分け（青→緑→オレンジ→赤）での視覚的表現",
    "インパクトのある赤文字での強調",
    "キャラクターイラストによる親しみやすさ",
    "吹き出しでの会話形式"
  ],
  "searchKeywords": [
    "残業時間",
    "職種ランキング",
    "就活開始時期",
    "インフラコンサルタント",
    "医療事務",
    "就活攻略",
    "職種選び",
    "新卒就活"
  ],
  "emotionalTriggers": [
    "職種選択への不安解消",
    "残業時間への関心",
    "就活開始時期への焦り",
    "有益な情報獲得",
    "無料攻略情報への興味"
  ],
  "marketingStage": "就活準備段階の大学生、職種選択に迷っている学生",
  "knowledgeId": "K031",
  "pageStructurePattern": "",
  "actualTitle": "学生よ、これが残業多い職種だ...",
  "pageCount": 6,
  "detailedContent": {
    "page1": {
      "role": "ranking-data-1",
      "section": "mainContent",
      "content": {
        "title": "残業多い職種ランキング",
        "format": "table-ranking",
        "data": [
          {"rank": "1位", "job": "インフラコンサルタント", "hours": "39.4"},
          {"rank": "2位", "job": "設計監理/コンストラクションマネジメント", "hours": "31.6"},
          {"rank": "3位", "job": "プロデューサー/ディレクター/プランナー（出版/広告/Web/映像関連）", "hours": "31.3"},
          {"rank": "4位", "job": "専門商社の営業", "hours": "31.2"},
          {"rank": "5位", "job": "店長", "hours": "30.6"},
          {"rank": "6位", "job": "施工管理", "hours": "30.5"},
          {"rank": "7位", "job": "広告営業", "hours": "29.9"},
          {"rank": "8位", "job": "総合商社の営業", "hours": "29.3"},
          {"rank": "9位", "job": "運輸/物流サービス", "hours": "29.0"},
          {"rank": "10位", "job": "研究開発/R&D（IT/通信）", "hours": "28.6"}
        ],
      }
    },
    "page2": {
      "role": "ranking-data-2",
      "section": "mainContent",
      "content": {
        "title": "残業多い職種ランキング",
        "format": "table-ranking",
        "data": [
          {"rank": "11位", "job": "金融業界の法人営業", "hours": "27.9"},
          {"rank": "11位", "job": "品質管理/品質保証（医療系）", "hours": "27.9"},
          {"rank": "13位", "job": "営業企画", "hours": "27.6"},
          {"rank": "13位", "job": "ITコンサルタント（アプリ）", "hours": "27.6"},
          {"rank": "15位", "job": "回路設計", "hours": "27.4"},
          {"rank": "16位", "job": "資産運用/投資銀行業務", "hours": "27.1"},
          {"rank": "17位", "job": "人材サービスの営業", "hours": "26.5"},
          {"rank": "18位", "job": "商品企画/サービス企画", "hours": "26.4"},
          {"rank": "19位", "job": "プラントエンジニア", "hours": "25.9"},
          {"rank": "20位", "job": "ゲームクリエイター（Web/モバイル/ソーシャル）", "hours": "25.6"}
        ],
      }
    },
    "page3": {
      "role": "ranking-data-3",
      "section": "mainContent",
      "content": {
        "title": "残業少ない職種ランキング",
        "background": "オレンジ色背景",
        "format": "table-ranking",
        "data": [
          {"rank": "1位", "job": "医療事務", "hours": "10.3"},
          {"rank": "2位", "job": "貿易事務", "hours": "11.1"},
          {"rank": "3位", "job": "臨床開発関連", "hours": "11.7"},
          {"rank": "4位", "job": "秘書/受付", "hours": "12.6"},
          {"rank": "5位", "job": "経理事務/財務事務", "hours": "13.0"},
          {"rank": "5位", "job": "薬事", "hours": "13.0"},
          {"rank": "7位", "job": "営業事務", "hours": "13.6"},
          {"rank": "8位", "job": "生産管理/製造（医療系）", "hours": "13.8"},
          {"rank": "9位", "job": "総務事務/法務事務/知財事務/広報事務", "hours": "14.2"},
          {"rank": "10位", "job": "テレマーケティング/カスタマーサポート/コールセンター", "hours": "14.9"}
        ],
      }
    },
    "page4": {
      "role": "ranking-data-4",
      "section": "mainContent",
      "content": {
        "title": "残業少ない職種ランキング",
        "background": "オレンジ色背景",
        "format": "table-ranking",
        "data": [
          {"rank": "11位", "job": "一般事務", "hours": "15.2"},
          {"rank": "12位", "job": "生産/製造/工場運営（素材/化学/食品系）", "hours": "15.8"},
          {"rank": "13位", "job": "ホテルスタッフ", "hours": "15.9"},
          {"rank": "14位", "job": "化学/素材メーカーの営業", "hours": "16.1"},
          {"rank": "15位", "job": "金融事務", "hours": "16.2"},
          {"rank": "16位", "job": "品質管理/品質保証（素材/化学/食品系）", "hours": "16.7"},
          {"rank": "17位", "job": "販売/接客/売り場担当", "hours": "16.8"},
          {"rank": "18位", "job": "金融業界の個人営業", "hours": "16.9"},
          {"rank": "19位", "job": "テクニカルサポート/ヘルプデスク", "hours": "17.0"},
          {"rank": "20位", "job": "教育/スクール", "hours": "17.1"}
        ],
      }
    },
    "page5": {
      "role": "impact-explanation",
      "section": "mainContent",
      "content": {
        "title": "ちなみに・・・",
        "format": "step-by-step-bars",
        "background": "白色背景",
        "data": [
          {"range": "0〜10時間未満", "impact": "ほぼ定時退社・ストレスなし", "color": "水色"},
          {"range": "10〜20時間未満", "impact": "週に何度か1時間残業する", "color": "薄緑"},
          {"range": "20〜30時間未満", "impact": "週に2日ほど残業がある", "color": "緑"},
          {"range": "30〜40時間未満", "impact": "週に4日ほど残業がある", "color": "黄緑"},
          {"range": "45〜60時間未満", "impact": "残業あたりまえ。週末に疲れがどっと来る", "color": "オレンジ"},
          {"range": "60〜80時間未満", "impact": "会社にいる時間が1日の半分（12時間）", "color": "赤オレンジ"},
          {"range": "80〜100時間", "impact": "1ヶ月間ずっと仕事から帰って寝るだけ", "color": "赤"}
        ],
      }
    },
    "page6": {
      "role": "urgency-message",
      "section": "summary",
      "content": {
        "mainMessage": "乗り遅れないで！",
        "subMessage": "就活、もう始まってます...！",
        "keyPoint": "就活は先手必勝。1日でも早くスタートした人が勝つゲームです。",
        "encouragement": "残業時間を考慮した職種選択で、理想の働き方を見つけよう！"
      }
    }
  }
}